City,Cloudiness,Country,Date,Humidity,Lat,Lon,Max Temp,Wind Speed
Shaoguan,44,CN,2018-03-08 05:20:38,78,24.81,113.59,53.87,7.81
Bouna,24,CI,2018-03-08 05:20:38,85,9.27,-3.0,73.85,9.15
Waipawa,92,NZ,2018-03-08 05:20:39,97,-39.94,176.59,61.25,11.05
Esperance,20,TT,2018-03-08 04:00:00,83,10.24,-61.45,77.0,6.93
Mahebourg,75,MU,2018-03-08 05:00:00,83,-20.41,57.7,80.6,8.05
Port Alfred,92,ZA,2018-03-08 05:20:40,100,-33.59,26.89,68.86,14.29
Bluff,88,AU,2018-03-08 04:54:54,43,-23.58,149.07,86.18,17.72
Laguna,0,MX,2018-03-08 05:20:41,66,27.52,-110.01,57.29,2.33
Warrington,90,GB,2018-03-08 04:50:00,93,53.39,-2.59,37.4,5.82
Rikitea,32,PF,2018-03-08 04:55:06,100,-23.12,-134.97,79.07,13.85
Vila Franca do Campo,75,PT,2018-03-08 05:00:00,93,37.72,-25.43,62.6,20.8
Dikson,68,RU,2018-03-08 05:20:43,99,73.51,80.55,-5.58,23.91
Mount Gambier,0,AU,2018-03-08 05:15:43,37,-37.83,140.78,84.92,2.1
Port Elizabeth,1,US,2018-03-08 04:56:00,85,39.31,-74.98,35.6,6.93
Hilo,90,US,2018-03-08 03:56:00,68,19.71,-155.08,69.8,8.05
Itaituba,24,BR,2018-03-08 05:20:44,96,-4.26,-55.99,75.2,2.1
Khatanga,0,RU,2018-03-08 05:20:44,60,71.98,102.47,-12.46,11.61
Nemuro,75,JP,2018-03-08 05:00:00,69,43.32,145.57,35.6,14.99
Ushuaia,90,AR,2018-03-08 04:00:00,81,-54.81,-68.31,44.6,28.86
Victor Harbor,0,AU,2018-03-08 04:30:00,23,-35.55,138.62,86.0,11.41
Castries,0,FR,2018-03-08 05:00:00,86,43.68,3.99,39.2,5.82
Adrar,0,DZ,2018-03-08 04:00:00,33,27.87,-0.29,62.6,5.82
Caravelas,92,BR,2018-03-08 05:20:47,99,-17.73,-39.27,81.95,14.58
Vaini,0,IN,2018-03-08 05:20:12,32,15.34,74.49,89.69,3.62
Jamestown,12,AU,2018-03-08 05:04:07,69,-33.21,138.6,75.79,13.8
Port Blair,24,IN,2018-03-08 05:20:48,100,11.67,92.75,83.53,8.14
Kapaa,90,US,2018-03-08 04:56:00,88,22.08,-159.32,66.2,21.92
Atuona,20,PF,2018-03-08 05:20:49,98,-9.8,-139.03,82.22,20.56
Vostok,80,RU,2018-03-08 05:20:49,73,46.45,135.83,25.48,5.64
Nouadhibou,0,MR,2018-03-08 04:00:00,93,20.93,-17.03,62.6,16.11
Bahia Blanca,0,AR,2018-03-08 05:16:03,58,-38.72,-62.27,70.97,16.2
Moba,32,CD,2018-03-08 05:20:50,97,-7.04,29.77,70.52,0.76
Bethel,90,US,2018-03-08 04:53:00,86,60.79,-161.76,30.2,12.75
Sao Joao da Barra,92,BR,2018-03-08 05:20:52,99,-21.64,-41.05,79.25,6.24
Barrow,0,AR,2018-03-08 05:20:53,39,-38.31,-60.23,63.5,10.94
Busselton,8,AU,2018-03-08 04:37:55,75,-33.64,115.35,78.94,6.24
Hermanus,44,ZA,2018-03-08 05:20:53,92,-34.42,19.24,57.34,2.62
Sola,0,FI,2018-03-08 04:50:00,71,62.78,29.36,3.2,9.17
Carnarvon,0,ZA,2018-03-08 05:04:33,87,-30.97,22.13,57.38,4.9
Saint George,75,GR,2018-03-08 04:50:00,58,39.45,22.34,55.4,16.11
Avarua,75,CK,2018-03-08 04:00:00,78,-21.21,-159.78,82.4,10.29
Lavrentiya,88,RU,2018-03-08 05:20:55,96,65.58,-170.99,25.97,18.1
Mataura,68,NZ,2018-03-08 05:20:56,71,-46.19,168.86,59.9,12.28
Seydisehir,0,TR,2018-03-08 05:20:56,65,37.42,31.85,48.2,3.22
Mizdah,8,LY,2018-03-08 05:20:57,79,31.45,12.98,52.34,5.08
Fort Nelson,20,CA,2018-03-08 05:00:00,72,58.81,-122.69,10.4,2.24
Poum,92,MK,2018-03-08 05:04:06,100,41.28,20.71,34.93,2.21
Ancud,92,CL,2018-03-08 05:20:58,97,-41.87,-73.83,61.21,6.31
Thompson,40,CA,2018-03-08 04:00:00,85,55.74,-97.86,10.4,5.3
Port Hedland,0,AU,2018-03-08 04:30:00,25,-20.31,118.58,100.4,16.11
Guerrero Negro,8,MX,2018-03-08 05:20:59,82,27.97,-114.04,55.31,7.36
Saint-Pierre,75,FR,2018-03-08 05:00:00,93,48.95,4.24,37.4,16.11
Lusambo,0,CD,2018-03-08 05:21:00,89,-4.97,23.44,75.83,2.33
Sabla,0,NG,2018-03-08 05:21:01,62,12.75,4.71,66.79,2.55
Punta Arenas,75,CL,2018-03-08 04:00:00,70,-53.16,-70.91,46.4,18.34
Cape Town,20,ZA,2018-03-08 04:00:00,82,-33.93,18.42,59.0,4.7
Raudeberg,75,NO,2018-03-08 04:50:00,100,61.99,5.14,35.6,2.24
Hobart,20,AU,2018-03-08 04:30:00,68,-42.88,147.33,68.0,14.99
Roald,75,NO,2018-03-08 04:50:00,74,62.58,6.12,33.8,4.7
Henderson,1,US,2018-03-08 04:53:00,20,36.04,-114.98,57.2,4.7
Tasiilaq,88,GL,2018-03-08 04:50:00,85,65.61,-37.64,21.2,8.05
Narsaq,0,GL,2018-03-08 04:50:00,43,60.91,-46.05,12.2,2.24
Kodiak,1,US,2018-03-08 03:53:00,79,39.95,-94.76,24.8,8.05
Bambous Virieux,75,MU,2018-03-08 05:00:00,83,-20.34,57.76,80.6,8.05
Puerto Escondido,0,MX,2018-03-08 05:17:07,100,15.86,-97.07,80.78,7.76
Tuktoyaktuk,90,CA,2018-03-08 04:00:00,85,69.44,-133.03,17.6,4.7
Tamandare,80,BR,2018-03-08 05:21:06,97,-8.28,-70.75,73.58,2.62
Belyy Yar,0,RU,2018-03-08 05:00:00,50,53.6,91.39,28.4,11.18
Henties Bay,64,NA,2018-03-08 05:21:07,100,-22.12,14.28,63.77,4.23
Cherskiy,0,RU,2018-03-08 05:21:07,69,68.75,161.3,-15.52,10.04
Butaritari,88,KI,2018-03-08 04:44:29,100,3.07,172.79,82.36,9.55
Puerto Ayora,56,EC,2018-03-08 05:18:25,100,-0.74,-90.35,77.09,8.43
Mehamn,0,NO,2018-03-08 04:50:00,65,71.03,27.85,14.0,11.41
Namatanai,36,PG,2018-03-08 05:21:09,100,-3.66,152.44,82.63,16.31
Albany,90,US,2018-03-08 04:19:00,87,42.65,-73.75,32.0,9.17
Pathein,0,MM,2018-03-08 05:21:09,46,16.78,94.73,95.63,7.58
Dawlatabad,32,AF,2018-03-08 05:21:10,52,36.41,64.91,63.86,4.63
Tolaga Bay,68,NZ,2018-03-08 05:21:10,96,-38.37,178.3,65.75,3.78
Jimma,12,ET,2018-03-08 05:21:11,74,7.67,36.84,65.75,3.11
Basco,90,US,2018-03-08 05:15:00,74,40.33,-91.2,28.4,12.75
Ribeira Grande,88,PT,2018-03-08 05:21:12,99,38.52,-28.7,62.15,17.94
Pocone,0,BR,2018-03-08 05:21:13,90,-16.26,-56.62,77.0,3.29
Hithadhoo,80,MV,2018-03-08 05:18:23,100,-0.6,73.08,84.11,9.89
Hami,0,CN,2018-03-08 05:21:13,46,42.84,93.51,57.29,3.22
Sao Filipe,0,CV,2018-03-08 05:21:14,100,14.9,-24.5,69.31,14.92
Lagoa,75,PT,2018-03-08 05:00:00,100,37.14,-8.45,59.0,14.99
Berlevag,0,NO,2018-03-08 04:50:00,65,70.86,29.09,8.6,11.41
Touros,92,BR,2018-03-08 05:21:16,81,-5.2,-35.46,80.96,7.09
Alugan,80,PH,2018-03-08 05:21:16,90,12.22,125.48,81.95,11.79
Gladstone,44,AU,2018-03-08 05:21:17,78,-23.84,151.26,77.99,19.62
Calvinia,64,ZA,2018-03-08 05:21:17,92,-31.47,19.78,51.98,4.34
Nanyamba,8,MZ,2018-03-08 05:21:17,96,-10.69,39.81,79.79,6.53
Ostrovnoy,20,RU,2018-03-08 05:21:18,73,68.05,39.51,10.18,6.76
Husavik,48,CA,2018-03-08 05:21:18,59,50.56,-96.99,1.67,3.06
Zatoka,32,PL,2018-03-08 05:00:00,92,50.04,20.52,30.2,1.12
Perleberg,92,DE,2018-03-08 05:21:19,95,53.08,11.86,36.28,13.96
Ati,0,TD,2018-03-08 05:21:19,22,13.21,18.34,68.59,8.25
San Vicente,0,SV,2018-03-08 04:50:00,83,13.64,-88.78,75.2,3.36
Outlook,68,CA,2018-03-08 05:21:22,55,51.48,-107.04,-1.57,3.06
Ponta do Sol,80,BR,2018-03-08 05:21:23,98,-20.63,-46.0,67.33,2.1
Tari,0,NG,2018-03-08 05:21:24,60,12.41,4.49,67.78,2.84
Katsuura,75,JP,2018-03-08 04:30:00,100,33.93,134.5,50.0,6.93
Saldanha,92,PT,2018-03-08 05:21:24,100,41.42,-6.55,40.46,3.0
Qaanaaq,24,GL,2018-03-08 05:21:25,88,77.48,-69.36,-14.98,4.29
Stranraer,5,CA,2018-03-08 04:00:00,84,51.71,-108.48,-2.21,5.82
Dutlwe,92,BW,2018-03-08 05:21:26,100,-23.98,23.93,65.71,5.12
Rocha,0,UY,2018-03-08 05:21:27,80,-34.48,-54.34,47.57,2.62
Kruisfontein,32,ZA,2018-03-08 05:21:27,97,-34.0,24.73,66.34,13.58
Geraldton,90,CA,2018-03-08 05:00:00,85,49.72,-86.95,21.2,5.82
New Norfolk,20,AU,2018-03-08 04:30:00,68,-42.78,147.06,68.0,14.99
Cap Malheureux,75,MU,2018-03-08 05:00:00,83,-19.98,57.61,80.6,8.05
Bogo,12,CM,2018-03-08 05:21:29,46,10.74,14.61,69.35,4.34
Arraial do Cabo,100,BR,2018-03-08 05:18:20,100,-22.97,-42.02,75.65,2.51
Kem,0,UG,2018-03-08 05:21:30,80,2.68,33.77,71.42,4.29
Lorengau,68,PG,2018-03-08 05:20:21,97,-2.02,147.27,84.38,8.66
Vanimo,0,PG,2018-03-08 05:21:30,100,-2.67,141.3,82.85,18.05
Luderitz,0,NA,2018-03-08 04:00:00,77,-26.65,15.16,62.6,14.99
Georgetown,40,GY,2018-03-08 04:00:00,94,6.8,-58.16,75.2,4.7
Padang,24,ID,2018-03-08 05:21:33,100,-0.92,100.36,82.81,4.41
Bandarbeyla,0,SO,2018-03-08 05:18:29,100,9.49,50.81,77.81,12.68
Ambulu,88,ID,2018-03-08 05:21:33,100,-8.35,113.61,80.83,7.65
Castro,100,CL,2018-03-08 05:16:40,98,-42.48,-73.76,59.36,5.3
Margate,20,AU,2018-03-08 04:30:00,68,-43.03,147.26,68.0,14.99
Hualmay,20,PE,2018-03-08 05:21:35,79,-11.1,-77.61,66.43,3.85
Saint-Augustin,0,FR,2018-03-08 05:00:00,93,44.83,-0.61,39.2,5.82
Lichinga,76,MZ,2018-03-08 05:21:35,94,-13.3,35.25,69.62,0.54
Dabhol,0,IN,2018-03-08 05:21:36,80,17.6,73.17,85.06,3.62
Vila Velha,40,BR,2018-03-08 05:00:00,78,-3.71,-38.6,78.8,16.11
Mandalgovi,0,MN,2018-03-08 05:21:37,74,45.76,106.27,37.22,13.13
Coihaique,0,CL,2018-03-08 05:00:00,67,-45.58,-72.07,59.0,6.93
Tongzi,88,CN,2018-03-08 05:21:39,60,28.78,105.09,64.76,4.29
Dandong,0,CN,2018-03-08 05:21:39,39,40.12,124.37,34.21,14.14
Klaksvik,92,FO,2018-03-08 04:50:00,100,62.23,-6.59,32.0,14.99
Acapulco,5,MX,2018-03-08 03:47:00,88,16.86,-99.88,77.0,2.24
Pangnirtung,48,CA,2018-03-08 05:21:41,63,66.15,-65.72,-3.19,2.89
Boffa,64,GN,2018-03-08 05:21:41,97,10.18,-14.04,71.69,2.62
Mabaruma,80,GY,2018-03-08 05:21:41,84,8.2,-59.78,78.17,8.66
Tshikapa,36,CD,2018-03-08 05:21:42,92,-6.42,20.79,74.89,1.61
Severo-Kurilsk,64,RU,2018-03-08 05:21:42,100,50.68,156.12,23.23,18.16
Tezu,0,IN,2018-03-08 05:21:43,54,27.93,96.16,65.75,1.5
Hobyo,0,SO,2018-03-08 05:21:43,68,5.35,48.53,82.04,17.94
Galle,1,US,2018-03-08 04:56:00,52,29.74,-97.91,55.4,3.36
Manokwari,12,ID,2018-03-08 05:18:19,100,-0.87,134.08,83.26,13.18
Bulolo,68,PG,2018-03-08 05:21:44,92,-7.2,146.64,69.31,1.61
Bredasdorp,100,ZA,2018-03-08 04:00:00,82,-34.53,20.04,60.8,4.7
Berdigestyakh,32,RU,2018-03-08 05:21:45,47,62.1,126.7,-7.96,4.0
Khash,0,IR,2018-03-08 05:21:45,21,28.22,61.21,66.2,3.78
Chokurdakh,20,RU,2018-03-08 05:21:20,31,70.62,147.9,-21.01,5.41
San Narciso,40,PH,2018-03-08 04:00:00,52,15.02,120.08,87.8,6.93
Morros,20,BR,2018-03-08 05:00:00,88,-2.87,-44.04,78.8,2.24
Luena,8,AO,2018-03-08 05:21:47,81,-11.78,19.91,64.36,3.33
Torbay,90,CA,2018-03-08 05:00:00,86,47.66,-52.73,28.4,18.34
Beringovskiy,80,RU,2018-03-08 05:21:48,94,63.05,179.32,18.91,36.17
Faya,0,SA,2018-03-08 04:00:00,43,18.39,42.45,55.4,3.22
Kaitangata,44,NZ,2018-03-08 05:21:49,67,-46.28,169.85,61.79,9.37
Hansi,0,IN,2018-03-08 05:21:50,73,29.11,75.96,79.16,4.56
Nikolskoye,0,RU,2018-03-08 05:00:00,78,59.7,30.79,10.4,8.95
Komsomolskiy,0,RU,2018-03-08 05:21:50,74,67.55,63.78,13.33,9.89
Half Moon Bay,90,US,2018-03-08 04:56:00,43,37.46,-122.43,62.6,8.05
Los Llanos de Aridane,8,ES,2018-03-08 05:00:00,77,28.66,-17.92,66.2,5.82
Ahipara,56,NZ,2018-03-08 05:21:52,100,-35.17,173.16,66.65,16.08
Acajutla,0,SV,2018-03-08 04:50:00,69,13.59,-89.83,80.6,2.24
Saint-Philippe,90,CA,2018-03-08 04:55:00,80,45.36,-73.48,30.2,9.17
Tommot,48,RU,2018-03-08 05:21:53,50,58.97,126.27,0.64,3.56
Huilong,36,CN,2018-03-08 05:21:53,71,28.89,110.18,55.18,4.79
Yaan,0,NG,2018-03-08 05:21:54,93,7.38,8.57,74.89,8.25
Sultanpur,0,IN,2018-03-08 05:21:54,76,26.26,82.07,80.33,4.56
Mayo,20,CA,2018-03-08 04:00:00,71,63.59,-135.9,8.6,5.82
Yulara,75,AU,2018-03-08 04:02:00,65,-25.24,130.99,80.6,26.4
Souillac,0,FR,2018-03-08 05:00:00,93,45.6,-0.6,39.2,3.36
Dongying,0,CN,2018-03-08 05:21:56,84,37.43,118.67,34.48,14.7
Umm Lajj,0,SA,2018-03-08 05:21:56,57,25.02,37.27,78.17,5.57
Mar del Plata,64,AR,2018-03-08 05:21:56,59,-46.43,-67.52,70.16,17.09
Seminole,1,US,2018-03-08 04:55:00,26,32.72,-102.64,46.4,4.7
Camacha,40,PT,2018-03-08 04:30:00,88,33.08,-16.33,62.6,12.75
Kavieng,76,PG,2018-03-08 05:04:29,100,-2.57,150.8,82.76,9.89
Urusha,0,RU,2018-03-08 05:21:59,34,54.05,122.9,13.55,3.62
Northam,48,GB,2018-03-08 03:50:00,86,51.04,-4.21,41.0,17.22
Sitka,0,US,2018-03-08 05:22:00,54,37.17,-99.65,31.37,4.29
Kota Tinggi,40,MY,2018-03-08 04:30:00,83,1.73,103.9,86.0,5.82
Ambilobe,100,MG,2018-03-08 05:22:00,100,-13.19,49.05,73.54,4.0
Arman,44,RU,2018-03-08 05:00:00,42,59.7,150.17,5.0,8.95
Lebu,0,ET,2018-03-08 05:22:01,68,8.96,38.73,58.24,3.89
Chuy,0,UY,2018-03-08 05:22:02,96,-33.69,-53.46,55.76,3.62
Chai Badan,64,TH,2018-03-08 05:22:02,97,15.2,101.13,80.96,6.42
Marathon,44,CA,2018-03-08 05:22:03,79,48.72,-86.38,18.19,10.78
Yellowknife,90,CA,2018-03-08 05:00:00,84,62.45,-114.38,1.4,2.24
Japura,56,ID,2018-03-08 05:22:03,75,-0.42,102.29,85.69,2.89
San Cristobal,75,EC,2018-03-08 04:00:00,81,-0.39,-78.55,53.6,13.87
Cayenne,80,GF,2018-03-08 04:30:00,83,4.94,-52.33,78.8,9.17
Nome,1,US,2018-03-08 04:55:00,71,30.04,-94.42,50.0,4.7
Guozhen,8,CN,2018-03-08 05:22:05,88,29.3,113.14,56.21,5.86
Cidreira,0,BR,2018-03-08 05:22:06,92,-30.17,-50.22,59.86,2.39
Zhicheng,0,CN,2018-03-08 05:22:06,64,35.04,112.59,48.65,6.76
Te Anau,24,NZ,2018-03-08 05:22:07,69,-45.41,167.72,58.55,4.29
Tiksi,12,RU,2018-03-08 05:22:07,30,71.64,128.87,-20.83,5.64
Iquique,0,CL,2018-03-08 05:00:00,56,-20.22,-70.14,69.8,5.82
General Roca,0,AR,2018-03-08 04:00:00,60,-39.03,-67.58,69.8,8.05
Neyshabur,48,IR,2018-03-08 05:22:09,100,36.21,58.79,50.14,3.62
Beloha,44,MG,2018-03-08 05:22:09,76,-25.17,45.06,77.68,5.35
Kumba,68,CM,2018-03-08 05:22:10,95,4.64,9.44,70.03,3.0
Dalby,40,AU,2018-03-08 04:00:00,57,-27.18,151.26,75.2,18.34
Meulaboh,24,ID,2018-03-08 05:22:11,100,4.14,96.13,82.4,3.4
College,1,US,2018-03-08 04:58:00,92,64.86,-147.8,12.2,7.54
Dingle,0,PH,2018-03-08 05:22:12,56,11.0,122.67,87.89,14.29
Havre-Saint-Pierre,90,CA,2018-03-08 05:00:00,79,50.23,-63.6,26.6,13.87
Uyuni,44,BO,2018-03-08 05:22:13,85,-20.46,-66.82,37.31,3.89
Kamphaeng Phet,12,TH,2018-03-08 05:22:13,84,16.47,99.53,86.09,4.23
Cabo San Lucas,20,MX,2018-03-08 03:44:00,52,22.89,-109.91,66.2,10.33
Kota Kinabalu,75,MY,2018-03-08 04:30:00,66,5.98,116.07,89.6,3.36
La Ronge,90,CA,2018-03-08 04:41:00,72,55.1,-105.3,15.8,4.7
Taguatinga,75,BR,2018-03-08 04:00:00,83,-15.83,-48.06,69.8,5.82
Mbigou,88,GA,2018-03-08 05:22:15,98,-1.9,11.91,67.82,2.89
Kijang,90,KR,2018-03-08 05:00:00,86,35.24,129.21,41.0,16.11
Saskylakh,0,RU,2018-03-08 05:22:16,37,71.97,114.09,-24.34,7.02
Thunder Bay,90,CA,2018-03-08 05:00:00,79,48.41,-89.26,21.2,6.93
Sao Felix do Xingu,92,BR,2018-03-08 05:22:17,99,-6.64,-51.99,73.58,2.06
Aswan,0,EG,2018-03-08 04:00:00,19,24.09,32.9,68.0,6.93
Sakaiminato,90,JP,2018-03-08 05:00:00,62,35.55,133.23,55.4,9.17
Port Moresby,48,PG,2018-03-08 05:22:19,100,-9.47,147.16,83.08,13.47
Manggar,92,ID,2018-03-08 05:22:19,90,-2.88,108.27,83.66,6.8
Iqaluit,5,CA,2018-03-08 05:00:00,83,63.75,-68.52,-7.61,8.05
Dejen,0,ET,2018-03-08 05:22:20,59,10.16,38.15,64.54,2.33
Karpogory,0,RU,2018-03-08 05:22:20,66,64.0,44.44,8.42,6.87
Upernavik,44,GL,2018-03-08 05:18:23,100,72.79,-56.15,-1.84,18.1
San Quintin,20,PH,2018-03-08 04:00:00,62,17.54,120.52,87.8,6.93
Pangody,0,RU,2018-03-08 05:22:22,83,65.85,74.49,5.36,11.61
Norman Wells,40,CA,2018-03-08 05:00:00,77,65.28,-126.83,-2.21,2.73
Maningrida,8,AU,2018-03-08 05:22:22,45,-12.05,134.23,95.18,15.7
Saint Anthony,75,US,2018-03-08 04:56:00,73,43.97,-111.68,26.6,5.82
Leh,12,IN,2018-03-08 05:21:47,78,34.16,77.58,-0.27,2.1
Pisco,0,PE,2018-03-08 04:00:00,73,-13.71,-76.2,73.4,2.24
Karratha,0,AU,2018-03-08 05:22:24,19,-20.74,116.85,102.38,5.23
Comodoro Rivadavia,0,AR,2018-03-08 04:00:00,53,-45.87,-67.48,75.2,9.17
Quimper,92,FR,2018-03-08 05:00:00,93,48.0,-4.1,48.2,10.29
Rawson,0,AR,2018-03-08 05:22:25,49,-43.3,-65.11,63.73,7.36
Port Macquarie,40,AU,2018-03-08 04:00:00,57,-31.43,152.91,75.2,17.22
Isangel,90,VU,2018-03-08 04:00:00,88,-19.55,169.27,82.4,5.82
Mugur-Aksy,0,RU,2018-03-08 05:22:26,59,50.38,90.44,17.6,8.77
Helong,32,CN,2018-03-08 05:22:27,73,25.94,116.13,48.65,7.65
Kloulklubed,90,PW,2018-03-08 04:51:00,59,7.04,134.26,91.4,11.41
Buenavista,40,CO,2018-03-08 04:00:00,77,4.36,-75.74,69.8,9.17
Namie,75,JP,2018-03-08 05:05:00,100,37.52,140.86,41.0,2.24
Oussouye,0,SN,2018-03-08 05:22:30,99,12.49,-16.54,69.35,7.58
Puerto del Rosario,56,ES,2018-03-08 05:00:00,77,28.5,-13.86,66.2,5.12
Airai,80,TL,2018-03-08 05:22:31,78,-8.93,125.41,77.09,1.83
Mitrofanovka,0,UA,2018-03-08 05:22:32,84,45.45,34.68,41.59,12.46
Kysyl-Syr,0,RU,2018-03-08 05:22:33,51,63.9,122.77,-9.49,3.85
Maceio,0,BR,2018-03-08 05:00:00,88,-9.67,-35.74,77.0,5.82
Sur,0,OM,2018-03-08 05:22:33,85,22.57,59.53,77.23,4.9
Nizwa,0,OM,2018-03-08 05:22:34,31,22.93,57.53,77.23,4.23
Oktyabrskoye,64,RU,2018-03-08 05:22:34,44,56.73,85.44,11.53,12.91
Muros,90,ES,2018-03-08 05:00:00,100,42.77,-9.06,42.8,9.17
Bonthe,44,SL,2018-03-08 05:22:35,93,7.53,-12.5,76.78,2.62
Manakara,8,MG,2018-03-08 05:22:36,99,-22.14,48.01,80.29,6.08
Bethanien,0,NA,2018-03-08 05:22:36,54,-26.5,17.16,57.38,2.84
Ruteng,48,ID,2018-03-08 05:22:36,85,-8.61,120.46,79.16,5.23
Vardo,1,US,2018-03-08 04:55:00,51,39.62,-77.74,37.4,12.75
San Carlos de Bariloche,0,AR,2018-03-08 04:00:00,67,-41.13,-71.31,62.6,13.87
Canakkale,75,TR,2018-03-08 03:50:00,82,40.15,26.41,57.2,2.24
Longonjo,8,AO,2018-03-08 05:22:38,76,-12.91,15.25,48.2,1.77
Nizhniy Odes,64,RU,2018-03-08 05:22:39,62,63.64,54.86,9.41,8.77
Misratah,20,LY,2018-03-08 05:22:40,88,32.38,15.09,60.04,12.8
Honiara,40,SB,2018-03-08 04:00:00,79,-9.43,159.96,86.0,2.24
Zyryanka,76,RU,2018-03-08 05:22:41,63,65.73,150.89,-7.51,8.59
Great Bend,1,US,2018-03-08 04:56:00,50,38.36,-98.78,30.2,8.66
Nikolayevka,88,RU,2018-03-08 05:22:42,96,46.73,38.57,36.91,10.6
Dudinka,32,RU,2018-03-08 05:22:42,83,69.41,86.18,3.16,7.14
Kahului,20,US,2018-03-08 04:56:00,68,20.89,-156.47,71.6,5.82
Gazanjyk,36,TM,2018-03-08 05:22:43,100,39.24,55.52,52.7,3.4
San Buenaventura,0,MX,2018-03-08 05:22:44,58,27.06,-101.55,49.64,4.12
Salalah,0,OM,2018-03-08 03:50:00,30,17.01,54.1,71.6,3.36
La Rioja,8,AR,2018-03-08 05:22:44,76,-29.41,-66.86,67.82,1.21
La Paz,20,MX,2018-03-08 03:43:00,48,24.15,-110.32,66.2,2.62
Faro,75,PT,2018-03-08 05:00:00,100,37.02,-7.94,59.0,14.99
Lensk,0,RU,2018-03-08 05:22:46,59,60.71,114.91,10.04,5.79
Butembo,20,CD,2018-03-08 05:22:47,90,0.12,29.29,68.68,3.11
Faanui,36,PF,2018-03-08 05:22:48,99,-16.48,-151.75,82.49,12.8
Zhigansk,0,RU,2018-03-08 05:22:48,62,66.77,123.37,-13.18,3.51
Churapcha,80,RU,2018-03-08 05:22:49,52,62.0,132.43,-9.9,3.85
Cockburn Town,0,TC,2018-03-08 05:20:03,100,21.46,-71.14,76.24,14.18
Srednekolymsk,32,RU,2018-03-08 05:22:49,68,67.46,153.71,-9.27,6.31
Dukat,88,RS,2018-03-08 05:22:50,87,42.44,22.31,33.94,2.1
Limbang,75,BN,2018-03-08 04:30:00,83,4.75,115.01,84.2,3.36
Quelimane,0,MZ,2018-03-08 05:22:51,100,-17.88,36.89,79.84,4.41
Guane,64,CU,2018-03-08 05:22:52,100,22.2,-84.09,68.41,4.29
Soyo,20,AO,2018-03-08 05:22:52,96,-6.13,12.37,74.93,2.84
Okhotsk,64,RU,2018-03-08 05:22:52,90,59.36,143.24,14.45,4.85
Bubaque,0,GW,2018-03-08 05:22:53,100,11.28,-15.83,73.4,8.66
Stryn,75,NO,2018-03-08 04:50:00,81,61.9,6.72,32.0,1.12
That Phanom,40,TH,2018-03-08 04:00:00,83,16.94,104.73,86.0,2.24
Goure,0,NE,2018-03-08 05:22:54,37,13.98,10.27,65.89,4.29
Rusape,0,ZW,2018-03-08 05:22:55,87,-18.53,32.12,65.03,3.74
Muroto,75,JP,2018-03-08 05:00:00,87,33.37,134.14,57.2,8.05
Baruun-Urt,0,MN,2018-03-08 05:22:55,60,46.68,113.28,34.48,16.98
Pokhara,0,NP,2018-03-08 05:22:56,44,28.21,83.99,67.51,2.73
Mokhsogollokh,64,RU,2018-03-08 05:22:56,58,61.4,128.95,-6.52,5.01
Kaka,88,TM,2018-03-08 05:22:57,82,37.35,59.62,56.08,2.77
Kurara,0,IN,2018-03-08 05:30:00,33,25.98,79.99,87.8,6.93
Ayan,92,TR,2018-03-08 05:22:58,93,40.67,33.6,44.11,4.63
Longyearbyen,0,NO,2018-03-08 04:50:00,59,78.22,15.63,3.2,12.75
Balingasay,12,PH,2018-03-08 05:22:58,86,16.36,119.86,85.06,8.1
Turukhansk,56,RU,2018-03-08 05:22:59,78,65.8,87.96,17.15,14.7
Buraydah,0,SA,2018-03-08 04:00:00,63,26.33,43.97,60.8,4.7
Auki,0,NG,2018-03-08 05:22:59,53,12.18,6.51,62.69,0.76
Namibe,0,AO,2018-03-08 05:23:00,100,-15.19,12.15,73.63,2.89
Vila do Maio,20,CV,2018-03-08 05:00:00,82,15.13,-23.22,66.2,11.41
Coahuayana,20,MX,2018-03-08 05:23:01,83,18.62,-100.35,60.31,2.33
Pacific Grove,1,US,2018-03-08 04:55:00,76,36.62,-121.92,53.6,3.36
Tuatapere,36,NZ,2018-03-08 05:23:01,100,-46.13,167.69,57.79,9.78
Gravdal,90,NO,2018-03-08 04:50:00,100,59.79,5.78,33.8,6.93
Lompoc,1,US,2018-03-08 04:56:00,87,34.64,-120.46,50.0,3.36
Kailua,90,US,2018-03-08 04:57:00,68,21.39,-157.74,71.6,14.99
Huarmey,0,PE,2018-03-08 05:23:03,79,-10.07,-78.15,63.46,3.06
Porto Novo,75,BR,2018-03-08 05:00:00,94,-23.68,-45.44,69.8,2.89
Saint-Joseph,0,FR,2018-03-08 05:00:00,65,43.56,6.97,44.6,2.24
Harpanahalli,0,IN,2018-03-08 05:23:05,32,14.8,75.98,89.38,6.76
Huanren,0,CN,2018-03-08 05:23:05,61,41.26,125.37,22.51,8.25
Victoria,75,BN,2018-03-08 04:30:00,88,5.28,115.24,84.2,5.82
Ormstown,90,CA,2018-03-08 04:53:00,92,45.13,-73.99,30.2,8.05
Talnakh,48,RU,2018-03-08 05:23:06,76,69.49,88.39,-0.63,2.89
Najran,0,SA,2018-03-08 04:00:00,33,17.54,44.22,57.2,4.7
Leningradskiy,36,RU,2018-03-08 05:23:07,87,69.38,178.42,-9.9,23.24
Constantine,40,DZ,2018-03-08 05:00:00,93,36.36,6.61,35.6,3.36
Ukiah,90,US,2018-03-08 04:56:00,87,39.15,-123.21,46.4,5.82
Hendaye,0,FR,2018-03-08 05:00:00,46,43.37,-1.77,53.6,1.12
Gazli,88,UZ,2018-03-08 05:23:09,82,40.13,63.45,48.43,10.11
Dubna,64,RU,2018-03-08 05:20:18,83,56.76,37.14,11.21,12.95
Omura,75,JP,2018-03-08 05:09:00,87,32.92,129.95,57.2,4.7
Richards Bay,48,ZA,2018-03-08 05:23:10,97,-28.77,32.06,73.09,4.07
Magaria,0,NE,2018-03-08 05:23:10,57,13.0,8.91,64.99,3.33
Yumen,0,CN,2018-03-08 05:23:11,68,40.29,97.04,53.33,1.32
Yarmouth,75,GB,2018-03-08 04:50:00,87,50.71,-1.5,42.8,24.16
Sioux Lookout,90,CA,2018-03-08 05:00:00,85,50.1,-91.92,14.0,3.36
Neuquen,0,AR,2018-03-08 04:00:00,60,-38.95,-68.06,69.8,8.05
Ayagoz,8,KZ,2018-03-08 05:23:12,88,47.96,80.43,21.56,8.81
Nykoping,75,SE,2018-03-08 04:50:00,92,58.75,17.01,30.2,10.29
Walvis Bay,90,NA,2018-03-08 04:00:00,88,-22.95,14.51,62.6,4.7
Grindavik,0,IS,2018-03-08 04:30:00,63,63.84,-22.43,26.6,11.41
Prainha,76,BR,2018-03-08 05:23:14,99,-1.8,-53.48,76.24,2.77
Whitehorse,90,CA,2018-03-08 04:00:00,73,60.72,-135.06,23.0,12.75
Nioaque,44,BR,2018-03-08 05:18:46,87,-21.16,-55.83,75.47,2.28
Provideniya,88,RU,2018-03-08 05:23:15,100,64.42,-173.23,25.84,4.9
Parintins,76,BR,2018-03-08 05:23:16,88,-2.63,-56.73,77.81,3.33
North Bend,90,US,2018-03-08 04:35:00,87,43.41,-124.22,48.2,3.36
Mairana,80,BO,2018-03-08 05:23:16,98,-18.12,-63.96,59.54,1.72
Fort Saint James,0,CA,2018-03-08 05:23:17,71,54.43,-124.25,9.01,2.77
Oranjemund,80,ZA,2018-03-08 05:23:17,99,-28.55,16.43,62.24,17.49
Straumen,0,NO,2018-03-08 04:50:00,92,63.87,11.3,24.8,4.7
Mana,90,RS,2018-03-08 05:00:00,93,43.52,20.24,39.2,2.24
Palu,56,ID,2018-03-08 05:23:19,88,-0.9,119.87,72.73,1.32
Daru,80,SL,2018-03-08 05:23:19,98,7.99,-10.85,70.03,2.89
Pevek,56,RU,2018-03-08 05:04:39,100,69.7,170.27,-13.09,14.58
Kalundborg,92,DK,2018-03-08 04:50:00,100,55.68,11.1,30.2,3.36
Caraballeda,75,VE,2018-03-08 04:00:00,94,10.61,-66.85,78.8,4.7
Coquimbo,0,CL,2018-03-08 05:00:00,82,-29.95,-71.34,59.0,2.24
Ugoofaaru,76,MV,2018-03-08 05:23:21,100,5.67,73.0,81.28,7.65
Thinadhoo,64,MV,2018-03-08 05:23:22,100,0.53,72.93,83.57,8.88
Kisesa,75,TZ,2018-03-08 04:00:00,88,-2.55,33.05,68.0,5.82
Mujiayingzi,0,CN,2018-03-08 05:23:23,49,42.12,118.78,29.71,3.62
Plettenberg Bay,92,ZA,2018-03-08 05:23:23,100,-34.05,23.37,65.39,13.96
Kampot,8,KH,2018-03-08 05:23:24,70,10.62,104.18,89.33,4.23
Santa Cruz,1,US,2018-03-08 04:56:00,53,36.97,-122.03,62.6,4.7
Mallaig,92,GB,2018-03-08 05:23:24,100,57.01,-5.83,37.63,18.05
Vao,68,EE,2018-03-08 05:23:25,88,59.1,26.19,15.98,9.82
Ust-Omchug,36,RU,2018-03-08 05:23:25,56,61.13,149.63,-7.38,3.51
Mogadishu,0,SO,2018-03-08 05:23:26,98,2.04,45.34,80.78,24.43
Kidal,0,ML,2018-03-08 05:23:26,52,18.44,1.41,55.04,4.52
Aykhal,0,RU,2018-03-08 05:23:26,67,65.95,111.51,-5.62,4.52
Sisimiut,44,GL,2018-03-08 05:23:27,69,66.94,-53.67,-1.93,2.1
Ilulissat,56,GL,2018-03-08 04:50:00,77,69.22,-51.1,3.2,14.99
Santa Rosa,0,AR,2018-03-08 05:23:30,40,-36.62,-64.29,69.17,13.18
Nuuk,0,GL,2018-03-08 04:50:00,85,64.17,-51.74,14.0,13.87
Toora-Khem,36,RU,2018-03-08 05:23:31,71,52.47,96.11,27.64,3.06
Kikuchi,75,JP,2018-03-08 05:10:00,100,33.0,130.85,57.2,11.41
Barpeta,0,IN,2018-03-08 05:00:00,61,26.33,91.01,80.6,9.17
Shar,12,NG,2018-03-08 05:23:32,87,7.3,8.73,76.37,10.56
Prince George,1,CA,2018-03-08 05:00:00,79,53.92,-122.75,19.4,5.82
Kimberley,75,ZA,2018-03-08 04:00:00,93,-28.74,24.76,60.8,10.29
Santa Vitoria do Palmar,0,BR,2018-03-08 05:20:31,96,-33.52,-53.37,55.76,3.62
Santa Margherita Ligure,0,IT,2018-03-08 04:50:00,75,44.33,9.21,44.6,5.82
Maua,56,KE,2018-03-08 05:23:34,66,0.23,37.94,71.87,3.22
Novyy Urengoy,0,RU,2018-03-08 05:22:47,78,66.08,76.63,4.51,9.1
Clyde River,90,CA,2018-03-08 05:00:00,75,70.47,-68.59,-18.41,9.17
Bafoulabe,0,ML,2018-03-08 05:23:35,31,13.81,-10.83,74.26,9.1
Acacias,20,CO,2018-03-08 05:23:35,96,5.51,-74.29,64.67,2.21
Hovd,0,NO,2018-03-08 04:50:00,92,63.83,10.7,28.4,4.7
Alliance,1,US,2018-03-08 03:53:00,85,42.1,-102.87,26.6,5.82
Loanda,8,BR,2018-03-08 05:23:37,76,-22.93,-53.14,74.57,5.91
Evensk,64,RU,2018-03-08 05:23:13,100,61.92,159.24,11.75,10.04
Benguela,12,AO,2018-03-08 05:22:49,100,-12.58,13.4,72.77,4.79
Melilla,40,EC,2018-03-08 04:00:00,83,-0.8,-80.23,78.8,4.7
Aasiaat,56,GL,2018-03-08 05:23:39,100,68.71,-52.87,10.58,7.02
Murray Bridge,0,AU,2018-03-08 05:23:39,64,-35.12,139.28,79.88,7.87
Vangaindrano,0,MG,2018-03-08 05:23:40,82,-23.35,47.6,78.04,3.4
Palmer,0,AU,2018-03-08 04:30:00,23,-34.85,139.16,86.0,11.41
Mahibadhoo,64,MV,2018-03-08 05:23:41,100,3.78,72.97,82.63,7.81
Fujin,20,CN,2018-03-08 05:23:41,81,47.24,132.03,17.06,4.79
Axim,20,GH,2018-03-08 05:23:42,100,4.87,-2.24,81.19,6.53
Hengshan,92,CN,2018-03-08 05:23:42,82,23.54,112.37,55.4,7.81
Skelleftea,88,SE,2018-03-08 04:50:00,92,64.75,20.95,10.4,3.36
Alice Springs,75,AU,2018-03-08 04:30:00,94,-23.7,133.88,71.6,10.29
Portland,90,US,2018-03-08 04:56:00,61,45.52,-122.67,50.0,4.7
Brownsville,90,US,2018-03-08 04:55:00,55,25.91,-97.49,62.6,3.36
Armidale,48,AU,2018-03-08 05:23:45,80,-30.51,151.67,62.56,11.12
Vanavara,68,RU,2018-03-08 05:23:45,63,60.35,102.28,13.01,5.53
Ambon,88,FR,2018-03-08 05:23:46,94,47.55,-2.56,46.94,14.63
Necochea,0,AR,2018-03-08 05:23:46,76,-38.55,-58.74,55.94,4.52
Acayucan,24,MX,2018-03-08 05:23:47,84,17.95,-94.91,69.62,8.32
Galesong,68,ID,2018-03-08 05:23:48,100,-5.32,119.37,80.33,9.44
Tessalit,0,ML,2018-03-08 05:23:48,55,20.2,1.01,55.63,3.22
Aksu,0,KZ,2018-03-08 05:00:00,72,52.04,76.93,12.2,17.9
East London,40,ZA,2018-03-08 04:00:00,83,-33.02,27.91,69.8,13.87
Broken Hill,0,AU,2018-03-08 05:23:50,27,-31.97,141.45,86.0,17.43
Kotido,0,UG,2018-03-08 05:23:50,55,3.01,34.12,75.2,5.57
Pinawa,36,CA,2018-03-08 05:23:51,62,50.15,-95.88,3.92,3.74
Capitan Bado,0,PY,2018-03-08 05:23:51,86,-23.27,-55.53,69.08,2.39
Taltal,0,CL,2018-03-08 05:23:51,97,-25.41,-70.49,46.31,3.0
Kununurra,0,AU,2018-03-08 04:30:00,22,-15.77,128.74,100.4,8.05
Assiniboia,0,CA,2018-03-08 05:23:52,48,49.63,-105.99,-4.0,2.89
Camacari,75,BR,2018-03-08 05:00:00,83,-12.7,-38.32,80.6,1.12
Dicabisagan,88,PH,2018-03-08 05:23:53,100,17.08,122.42,74.93,7.25
Port-Gentil,8,GA,2018-03-08 05:23:54,98,-0.72,8.78,80.6,5.41
Barreiras,44,BR,2018-03-08 05:23:17,97,-12.14,-45.0,67.51,2.77
Taoudenni,0,ML,2018-03-08 05:23:55,58,22.68,-3.98,55.54,3.33
Woodward,1,US,2018-03-08 04:53:00,42,36.43,-99.39,37.4,7.25
Bemidji,1,US,2018-03-08 04:35:00,84,47.48,-94.89,8.6,5.82
Pitimbu,20,BR,2018-03-08 04:00:00,88,-7.47,-34.81,77.0,2.24
Takoradi,76,GH,2018-03-08 05:23:56,100,4.89,-1.75,79.79,5.41
Surab,0,PK,2018-03-08 05:23:57,62,28.49,66.26,62.87,4.0
Westlock,1,CA,2018-03-08 05:00:00,71,54.15,-113.85,6.8,2.51
Calabozo,44,VE,2018-03-08 05:23:58,77,8.92,-67.43,77.23,11.05
Usinsk,76,RU,2018-03-08 05:23:58,79,66.0,57.56,12.02,12.17
Chapleau,88,CA,2018-03-08 05:23:59,85,47.85,-83.4,21.83,7.65
Dubbo,0,AU,2018-03-08 04:30:00,34,-32.25,148.6,78.8,13.87
Jardim,80,BR,2018-03-08 05:23:59,90,-21.48,-56.15,74.93,3.0
Pipri,92,IN,2018-03-08 05:24:00,44,24.21,83.02,79.43,3.33
High Level,5,CA,2018-03-08 05:00:00,71,58.52,-117.13,3.2,2.24
Taicheng,64,CN,2018-03-08 05:24:01,76,22.25,112.8,59.81,16.2
Ust-Maya,64,RU,2018-03-08 05:24:01,44,60.42,134.54,-6.75,3.78
Abnub,0,EG,2018-03-08 04:00:00,42,27.27,31.15,64.4,4.7
Tonk,80,IN,2018-03-08 05:24:02,46,26.16,75.79,81.32,6.08
Mandera,56,ET,2018-03-08 05:24:03,31,3.94,41.86,85.64,8.77
Udachnyy,0,RU,2018-03-08 05:24:03,63,66.42,112.4,-4.18,3.4
Nawa,24,IN,2018-03-08 05:24:04,22,27.02,75.0,86.41,8.93
Hagersville,90,CA,2018-03-08 05:02:00,86,42.96,-80.05,26.6,17.22
Pingshan,92,CN,2018-03-08 05:24:04,51,28.83,104.35,63.19,3.78
Harper,1,US,2018-03-08 04:55:00,49,30.3,-99.24,50.0,7.76
Pacifica,75,US,2018-03-08 04:56:00,13,37.61,-122.49,62.6,10.29
Puerto Madryn,0,AR,2018-03-08 05:24:06,55,-42.77,-65.04,74.44,15.7
Tura,0,IN,2018-03-08 05:24:06,53,25.52,90.21,80.51,5.3
Port Lincoln,0,AU,2018-03-08 05:22:15,62,-34.72,135.86,79.34,13.35
Nanga Eboko,92,CM,2018-03-08 05:24:07,95,4.68,12.37,72.32,7.76
Jackville,20,CI,2018-03-08 05:00:00,94,5.21,-4.42,78.8,4.7
Asyut,0,EG,2018-03-08 04:00:00,42,27.18,31.19,64.4,4.7
Halifax,90,CA,2018-03-08 05:00:00,99,44.65,-63.58,32.0,18.34
Erdenet,12,MN,2018-03-08 05:24:09,48,49.03,104.04,43.61,10.78
Gat,0,SN,2018-03-08 05:24:09,63,14.69,-16.54,67.24,7.87
Potsdam,75,DE,2018-03-08 04:50:00,93,52.4,13.06,35.6,4.7
Nkhotakota,88,MW,2018-03-08 05:24:10,100,-12.93,34.3,71.11,4.85
Kavaratti,0,IN,2018-03-08 05:24:11,100,10.57,72.64,83.39,4.52
Dongkan,20,CN,2018-03-08 05:24:11,82,34.0,119.83,41.09,19.73
Chifeng,0,CN,2018-03-08 05:24:12,49,42.27,118.96,29.71,3.62
Anjad,0,IN,2018-03-08 05:24:12,56,22.04,75.06,85.37,11.9
Eureka,20,US,2018-03-08 04:55:00,87,40.8,-124.16,51.8,5.82
Amantea,90,IT,2018-03-08 04:55:00,100,39.13,16.07,53.6,19.46
Lerwick,92,GB,2018-03-08 04:50:00,87,60.15,-1.15,42.8,18.34
Gizo,0,IL,2018-03-08 04:50:00,32,31.8,34.94,75.2,2.24
Manono,0,CD,2018-03-08 05:24:14,79,-7.3,27.4,75.92,4.56
Severodvinsk,40,RU,2018-03-08 05:00:00,83,64.56,39.82,-5.81,4.47
Caborca,20,MX,2018-03-08 05:24:15,54,30.58,-111.1,44.6,2.62
Sangin,56,AF,2018-03-08 05:24:15,79,32.07,64.85,60.76,4.79
Chipata,0,ZM,2018-03-08 05:24:15,72,-13.64,32.65,72.91,4.12
Jalu,0,LY,2018-03-08 05:24:16,37,29.03,21.55,63.77,9.78
Puerto Rondon,20,CO,2018-03-08 05:24:16,79,6.28,-71.1,78.31,8.32
Katherine,0,AU,2018-03-08 04:30:00,44,-14.47,132.26,95.0,10.29
Jasper,0,US,2018-03-08 04:56:00,56,33.83,-87.28,39.2,5.64
Marsh Harbour,88,BS,2018-03-08 05:24:18,100,26.54,-77.06,71.15,10.11
Jiazi,75,CN,2018-03-08 05:00:00,93,19.61,110.49,60.8,13.42
Naryan-Mar,88,RU,2018-03-08 05:24:19,82,67.67,53.09,9.77,20.07
Port Hardy,75,CA,2018-03-08 05:00:00,93,50.7,-127.42,37.4,5.82
Sechura,20,PE,2018-03-08 05:24:20,86,-5.56,-80.82,72.32,6.64
Kozhva,76,RU,2018-03-08 05:24:21,72,65.11,57.05,10.54,10.04
Milkovo,80,BG,2018-03-08 05:00:00,100,41.53,24.68,50.0,3.36
Bundaberg,76,AU,2018-03-08 05:24:22,100,-24.87,152.35,79.16,26.78
Romitan,68,UZ,2018-03-08 05:00:00,71,39.93,64.38,53.6,4.7
Paraiso,0,MX,2018-03-08 05:24:23,56,24.01,-104.61,51.04,7.25
Verkhnyaya Inta,80,RU,2018-03-08 05:24:23,74,65.99,60.32,11.57,6.42
Constitucion,0,MX,2018-03-08 05:24:03,56,23.99,-104.67,51.04,7.25
Paka,90,HR,2018-03-08 05:00:00,100,45.29,18.06,35.6,8.05
Micheweni,64,TZ,2018-03-08 05:24:25,100,-4.97,39.83,81.86,12.39
Pearl Lagoon,68,NI,2018-03-08 05:24:25,97,12.34,-83.67,78.49,14.18
Sungaipenuh,36,ID,2018-03-08 05:24:26,89,-2.08,101.38,73.99,0.2
Ujhani,0,IN,2018-03-08 05:20:43,82,28.0,79.01,76.91,3.89
Jawhar,0,IN,2018-03-08 05:24:26,33,19.91,73.23,93.38,4.12
Praia da Vitoria,75,PT,2018-03-08 05:00:00,88,38.73,-27.07,62.6,21.18
General Bravo,8,MX,2018-03-08 05:24:27,82,25.79,-99.18,51.8,4.56
Kamaishi,75,JP,2018-03-08 05:00:00,80,39.28,141.86,39.2,1.12
Bad Wurzach,75,DE,2018-03-08 04:50:00,94,47.91,9.89,39.2,14.99
Conde,32,BR,2018-03-08 05:24:28,94,-11.81,-37.61,79.25,11.61
Bathsheba,40,BB,2018-03-08 04:00:00,83,13.22,-59.52,78.8,19.46
Vestmannaeyjar,0,IS,2018-03-08 05:24:29,100,63.44,-20.27,28.22,14.81
Miramar,0,CR,2018-03-08 05:00:00,64,10.09,-84.73,68.0,13.87
Russell,0,AR,2018-03-08 04:00:00,60,-33.01,-68.8,71.6,2.24
Sorland,20,NO,2018-03-08 04:50:00,62,67.67,12.69,21.2,8.05
Siguiri,0,GN,2018-03-08 05:24:32,63,11.42,-9.17,67.19,3.33
Lingao,92,CN,2018-03-08 05:24:33,100,19.91,109.69,60.94,11.95
Aklavik,75,CA,2018-03-08 05:00:00,72,68.22,-135.01,14.0,5.82
Tra Vinh,8,VN,2018-03-08 05:24:34,53,9.93,106.35,92.57,10.38
Harqalah,92,SY,2018-03-08 05:24:34,65,35.96,38.95,57.43,5.53
Beyneu,92,KZ,2018-03-08 05:24:35,100,45.32,55.19,26.78,14.81
Agadez,0,NE,2018-03-08 05:00:00,17,16.97,7.99,77.0,5.82
Sao Miguel do Araguaia,80,BR,2018-03-08 05:24:36,97,-13.28,-50.16,72.64,3.74
Sita Road,0,PK,2018-03-08 05:24:36,71,27.03,67.85,78.53,5.23
Kaz,68,RU,2018-03-08 05:24:37,61,53.11,87.55,17.74,8.81
Tabou,20,CI,2018-03-08 05:24:37,97,4.42,-7.36,81.41,2.84
Qaqortoq,0,GL,2018-03-08 04:50:00,43,60.72,-46.03,12.2,2.24
Hasaki,75,JP,2018-03-08 05:00:00,100,35.73,140.83,46.4,9.17
Tuy Hoa,12,VN,2018-03-08 05:24:39,80,13.08,109.3,79.88,12.8
Quatre Cocos,75,MU,2018-03-08 05:00:00,83,-20.21,57.76,80.6,8.05
Ostersund,75,SE,2018-03-08 04:50:00,92,63.18,14.64,21.2,14.99
Bhuban,0,IN,2018-03-08 05:24:40,30,20.88,85.83,93.2,4.12
Washington DC.,20,US,2018-03-08 04:56:00,55,38.9,-77.04,41.0,12.75
Lahaina,90,US,2018-03-08 05:15:00,68,20.87,-156.68,71.6,13.87
Makakilo City,1,US,2018-03-08 04:57:00,64,21.35,-158.09,71.6,8.05
Red Bluff,90,US,2018-03-08 04:55:00,71,40.18,-122.24,62.6,19.46
Kragujevac,90,RS,2018-03-08 05:00:00,93,44.01,20.91,39.2,2.24
Conakry,0,GN,2018-03-08 05:24:42,100,9.52,-13.7,75.74,3.74
Kalmunai,88,LK,2018-03-08 05:24:43,92,7.42,81.82,81.01,5.64
Terrace,5,CA,2018-03-08 05:00:00,58,54.52,-128.61,30.2,13.87
Broome,0,GB,2018-03-08 04:50:00,86,52.47,1.45,39.2,12.75
Nabire,68,ID,2018-03-08 05:24:44,86,-3.36,135.5,78.17,2.39
Bela,0,PK,2018-03-08 05:24:44,22,26.23,66.31,83.84,3.33
Ambunti,24,PG,2018-03-08 05:24:45,71,-4.22,142.82,86.9,2.84
Nizhniy Tagil,56,RU,2018-03-08 05:24:45,59,57.92,59.97,10.13,13.35
Nalut,36,LY,2018-03-08 05:24:46,73,31.86,10.98,54.14,8.1
Prince Rupert,1,CA,2018-03-08 05:00:00,100,54.32,-130.32,32.0,9.17
Soe,80,EE,2018-03-08 04:50:00,68,57.91,26.05,24.8,10.29
Tooele,1,US,2018-03-08 04:56:00,64,40.53,-112.3,39.2,3.11
Atar,0,MR,2018-03-08 05:24:48,61,20.52,-13.05,57.29,3.22
Shache,0,CN,2018-03-08 05:24:48,45,38.42,77.24,55.58,3.22
Bougouni,24,ML,2018-03-08 05:24:49,71,11.42,-7.49,67.82,2.73
Mount Isa,90,AU,2018-03-08 04:43:00,94,-20.73,139.49,73.4,13.87
Mareeba,75,AU,2018-03-08 04:50:00,94,-16.99,145.42,77.0,12.75
Nikolayevsk-na-amure,0,RU,2018-03-08 05:24:50,48,53.14,140.72,10.18,8.03
Beatrice,1,US,2018-03-08 04:35:00,85,40.27,-96.75,23.0,8.05
Smithers,1,CA,2018-03-08 05:00:00,78,54.78,-127.17,17.6,2.24
Codrington,92,AU,2018-03-08 05:22:21,75,-28.95,153.24,69.8,9.1
Manzanillo,0,CU,2018-03-08 05:24:52,100,20.34,-77.12,76.73,11.16
Ampanihy,56,MG,2018-03-08 05:24:52,75,-24.69,44.75,76.01,6.8
Deputatskiy,12,RU,2018-03-08 05:21:30,71,69.3,139.9,-17.14,3.74
Divnomorskoye,88,RU,2018-03-08 05:24:53,100,44.5,38.13,49.28,7.31
Banjarmasin,64,ID,2018-03-08 05:24:54,84,-3.32,114.59,84.38,8.14
Kholm,48,RU,2018-03-08 05:24:55,83,57.15,31.18,17.42,12.17
Boueni,75,YT,2018-03-08 04:30:00,83,-12.9,45.08,82.4,5.82
Tagusao,64,PH,2018-03-08 05:24:56,82,9.19,117.81,83.75,9.04
Barranca,0,PE,2018-03-08 05:24:56,95,-10.75,-77.76,66.47,8.55
Tianpeng,12,CN,2018-03-08 05:24:57,97,28.88,112.34,57.38,6.02
Mayumba,88,GA,2018-03-08 05:24:57,100,-3.44,10.65,79.7,4.07
Zaraza,0,VE,2018-03-08 05:24:58,84,9.35,-65.33,72.95,9.78
Fushe-Arrez,92,AL,2018-03-08 05:24:59,100,42.06,20.02,41.14,2.33
Inuvik,75,CA,2018-03-08 05:00:00,72,68.36,-133.71,17.6,5.82
Blagoyevo,88,RU,2018-03-08 05:24:59,60,63.37,47.92,16.61,10.6
Avera,1,US,2018-03-08 04:55:00,59,33.19,-82.53,42.8,8.05
Kuusamo,0,FI,2018-03-08 04:50:00,77,65.96,29.19,-0.41,5.82
San Francisco,90,US,2018-03-08 04:35:00,47,37.78,-122.42,62.6,6.93
Udimskiy,0,RU,2018-03-08 05:25:01,68,61.14,45.92,2.08,12.28
Lugovoy,64,RU,2018-03-08 05:25:02,63,59.72,65.88,15.76,12.91
Saint-Leu,0,RE,2018-03-08 04:36:00,65,-21.15,55.28,82.4,4.7
Darnah,8,LY,2018-03-08 05:25:03,95,32.77,22.64,63.41,6.87
Chhabra,32,IN,2018-03-08 05:25:04,26,24.67,76.85,89.38,4.0
Kilimatinde,32,TZ,2018-03-08 05:25:04,96,-5.75,34.82,68.23,3.29
Hambantota,68,LK,2018-03-08 05:25:05,93,6.12,81.12,84.34,9.33
Hirado,75,JP,2018-03-08 05:09:00,87,33.32,129.49,57.2,4.7
Viedma,0,AR,2018-03-08 05:23:14,30,-40.81,-62.99,69.44,13.96
Likasi,8,CD,2018-03-08 05:25:06,99,-10.99,26.74,68.18,1.83
Mapiri,56,BO,2018-03-08 05:25:06,87,-15.31,-68.22,46.09,1.83
Panama City,1,US,2018-03-08 04:56:00,100,30.16,-85.65,50.0,11.41
Madinat Sittah Uktubar,8,EG,2018-03-08 05:00:00,18,29.82,31.05,80.6,19.46
Carutapera,76,BR,2018-03-08 05:25:08,94,-1.2,-46.02,78.31,4.56
Lasa,20,CY,2018-03-08 05:00:00,55,34.92,32.53,64.4,5.82
Santa Helena de Goias,36,BR,2018-03-08 05:25:09,95,-17.81,-50.6,69.26,2.39
Banff,36,CA,2018-03-08 05:20:10,68,51.18,-115.57,2.44,0.72
Ipatovo,32,RU,2018-03-08 05:25:09,92,45.72,42.92,41.0,7.02
Libourne,0,FR,2018-03-08 05:00:00,93,44.91,-0.24,39.2,5.82
Corpus Christi,40,US,2018-03-08 04:56:00,66,27.8,-97.4,55.4,7.31
Niquero,0,CU,2018-03-08 05:25:11,100,20.04,-77.58,73.76,2.51
Kindu,24,CD,2018-03-08 05:25:13,72,-2.95,25.92,77.63,2.55
Arinos,32,BR,2018-03-08 05:23:11,96,-15.92,-46.11,71.51,3.0
Oriximina,44,BR,2018-03-08 05:25:13,92,-1.77,-55.87,77.14,3.85
Olovyannaya,24,RU,2018-03-08 05:25:14,55,50.94,115.59,15.53,12.06
Goderich,92,CA,2018-03-08 05:22:57,91,43.74,-81.71,28.76,10.89
Pyay,0,MM,2018-03-08 05:25:15,40,18.82,95.22,93.61,9.93
San Luis,0,AR,2018-03-08 05:25:16,48,-33.3,-66.34,73.49,12.62
Valparaiso,90,US,2018-03-08 05:15:00,79,41.47,-87.06,30.2,6.93
Carballo,75,ES,2018-03-08 05:00:00,93,43.21,-8.69,46.4,21.92
Xai-Xai,0,MZ,2018-03-08 05:25:17,96,-25.04,33.64,78.17,10.6
Clinton,1,US,2018-03-08 04:56:00,85,41.84,-90.19,24.8,12.75
Kamenka,92,RU,2018-03-08 05:25:19,89,53.19,44.05,19.04,13.13
Sinnamary,76,GF,2018-03-08 05:25:19,94,5.38,-52.96,79.93,12.39
Inirida,76,CO,2018-03-08 05:25:20,95,3.87,-67.92,73.67,2.21
Sinjar,76,SY,2018-03-08 05:25:20,68,35.59,37.0,55.18,4.79
Anahuac,1,US,2018-03-08 05:15:00,38,29.77,-94.68,60.8,4.34
Haines Junction,68,CA,2018-03-08 05:25:21,75,60.75,-137.51,9.05,1.77
Blackwater,75,GB,2018-03-08 04:50:00,87,51.33,-0.78,44.6,24.16
Santa Marinella,0,IT,2018-03-08 04:55:00,93,42.04,11.87,44.6,4.7
Marrakesh,75,MA,2018-03-08 05:00:00,82,31.63,-7.99,59.0,1.12
Nyurba,0,RU,2018-03-08 05:25:23,48,63.29,118.35,-2.11,3.78
Presidencia Roque Saenz Pena,12,AR,2018-03-08 05:25:23,73,-26.79,-60.44,61.03,2.84
Beira,75,ES,2018-03-08 05:00:00,93,43.2,-8.36,46.4,21.92
Kachiry,0,KZ,2018-03-08 05:25:24,79,53.07,76.1,12.83,15.19
Plaster Rock,90,CA,2018-03-08 04:56:00,68,46.91,-67.4,28.4,9.17
Meadow Lake,64,CA,2018-03-08 05:24:35,78,54.13,-108.44,7.88,3.62
Catuday,12,PH,2018-03-08 05:23:22,86,16.29,119.81,85.06,8.1
Yerky,92,UA,2018-03-08 05:25:26,97,49.93,33.53,33.94,6.13
Grand Gaube,75,MU,2018-03-08 05:00:00,83,-20.01,57.66,80.6,8.05
Gushikawa,90,JP,2018-03-08 05:00:00,82,26.35,127.87,62.6,13.87
Lashio,0,MM,2018-03-08 05:25:27,37,22.93,97.75,81.77,2.62
Baherden,0,TM,2018-03-08 05:25:28,100,38.44,57.43,55.58,2.55
Santiago del Estero,12,AR,2018-03-08 05:25:28,48,-27.8,-64.26,72.64,9.26
Caucasia,20,CO,2018-03-08 05:25:29,93,7.98,-75.2,75.16,1.21
Matara,24,PE,2018-03-08 05:25:30,100,-13.74,-72.9,37.09,1.72
Lyuban,92,BY,2018-03-08 05:25:30,98,52.8,28.0,28.94,5.23
Krasne,12,UA,2018-03-08 05:00:00,93,49.91,24.61,32.0,2.24
Cordoba,44,CO,2018-03-08 05:25:31,83,5.59,-73.79,45.23,3.0
Aljezur,92,PT,2018-03-08 05:25:32,96,37.31,-8.8,60.13,20.45
Mozarlandia,56,BR,2018-03-08 05:25:32,96,-14.74,-50.57,70.43,2.33
Arlit,0,NE,2018-03-08 05:25:33,32,18.74,7.39,58.28,3.56
Krabi,20,TH,2018-03-08 04:30:00,59,8.06,98.92,89.6,6.93
Gangelt,92,NL,2018-03-08 04:55:00,93,50.99,6.0,37.4,14.99
Nangomba,24,TZ,2018-03-08 05:25:34,98,-10.9,38.52,78.35,7.54
Clearwater,40,US,2018-03-08 05:15:00,62,27.97,-82.8,62.6,5.82
Anadyr,90,RU,2018-03-08 05:00:00,84,64.73,177.51,8.6,20.13
Tallahassee,1,US,2018-03-08 05:15:00,59,30.44,-84.28,46.4,4.7
Homer,75,US,2018-03-08 05:06:00,68,59.64,-151.54,28.4,3.36
Ouango,12,CD,2018-03-08 05:25:36,91,4.31,22.55,74.3,4.29
Gavle,92,SE,2018-03-08 05:25:37,90,60.67,17.14,27.23,8.93
Mount Pleasant,1,US,2018-03-08 04:56:00,80,33.16,-94.97,42.8,2.84
Porosozero,32,RU,2018-03-08 05:25:39,71,62.72,32.71,1.18,5.79
Bilma,0,NE,2018-03-08 05:25:39,37,18.69,12.92,60.17,2.84
Shchors,92,UA,2018-03-08 05:25:40,97,51.82,31.95,29.12,5.23
Sabang,80,PH,2018-03-08 05:25:40,92,13.72,123.58,80.15,7.31
Alofi,92,NU,2018-03-08 04:00:00,70,-19.06,-169.92,86.0,10.29
Durban,90,FR,2018-03-08 05:00:00,87,43.54,0.58,39.2,10.78
Wroclaw,0,PL,2018-03-08 05:00:00,80,51.1,17.03,39.2,8.05
El Alto,90,BO,2018-03-08 04:00:00,93,-16.5,-68.19,42.8,2.24
Suez,0,EG,2018-03-08 05:25:43,62,29.97,32.54,64.04,4.9
Belyy,76,RU,2018-03-08 05:25:43,88,55.83,32.94,20.48,13.58
Paita,24,PE,2018-03-08 05:24:34,79,-5.09,-81.11,70.93,2.89
Tazovskiy,80,RU,2018-03-08 05:25:44,91,67.47,78.7,13.82,10.56
Marystown,24,CA,2018-03-08 05:25:44,97,47.17,-55.16,30.61,19.17
Helsinki,75,FI,2018-03-08 04:50:00,78,60.17,24.94,15.8,9.17
Otaru,75,JP,2018-03-08 04:10:00,74,43.18,140.99,37.4,10.29
Vestmanna,92,FO,2018-03-08 04:50:00,100,62.16,-7.17,32.0,14.99
Limulunga,36,ZM,2018-03-08 05:25:46,63,-15.13,23.15,75.56,2.06
Celestun,8,MX,2018-03-08 05:25:46,100,20.87,-90.4,75.47,19.44
Inhambane,0,MZ,2018-03-08 05:25:47,84,-23.87,35.38,81.14,7.25
Emba,20,CY,2018-03-08 05:00:00,55,34.81,32.42,64.4,5.82
Cartagena del Chaira,24,CO,2018-03-08 05:25:48,99,1.33,-74.84,71.74,1.28
Manjacaze,0,MZ,2018-03-08 05:25:49,75,-24.71,33.88,80.24,9.15
Kuching,75,MY,2018-03-08 04:30:00,66,1.56,110.34,86.0,4.7
Balkanabat,12,TM,2018-03-08 05:25:49,79,39.51,54.36,53.83,2.89
Shellbrook,90,CA,2018-03-08 05:00:00,84,53.22,-106.39,-2.21,3.0
Keelung,75,TW,2018-03-08 05:00:00,76,25.13,121.74,57.2,8.05
Maniitsoq,8,GL,2018-03-08 05:22:05,75,65.42,-52.9,0.23,6.53
Mackay,5,CA,2018-03-08 05:00:00,72,53.65,-115.58,17.6,2.24
Kautokeino,80,NO,2018-03-08 05:25:51,74,69.01,23.04,-3.91,2.73
Boguchany,24,RU,2018-03-08 05:25:53,59,58.38,97.46,23.36,9.6
Singapore,40,MY,2018-03-08 04:30:00,83,1.29,103.85,86.0,5.82
Fagersta,90,SE,2018-03-08 04:50:00,92,60.0,15.79,24.8,4.7
Reconquista,0,AR,2018-03-08 05:21:30,81,-29.14,-59.64,61.84,3.06
Shetpe,8,KZ,2018-03-08 05:25:54,95,44.14,52.16,39.88,10.11
Aksum,0,ET,2018-03-08 05:25:55,52,14.12,38.72,64.81,3.74
Castle Douglas,64,GB,2018-03-08 05:25:55,97,54.94,-3.92,33.04,7.58
Omboue,68,GA,2018-03-08 05:23:02,100,-1.57,9.26,82.31,8.03
Wanning,75,AT,2018-03-08 04:50:00,95,48.64,13.53,35.6,2.24
Abaza,56,RU,2018-03-08 05:25:57,71,52.65,90.1,23.27,6.13
Rancho Palos Verdes,1,US,2018-03-08 04:56:00,62,33.75,-118.37,62.6,9.15
Veraval,90,FR,2018-03-08 05:00:00,93,49.65,0.71,44.6,16.11
Svay Rieng,44,KH,2018-03-08 05:25:58,62,11.08,105.8,92.44,4.79
Dolores,0,AR,2018-03-08 05:25:59,64,-36.31,-57.68,58.55,8.43
Peniche,90,PT,2018-03-08 05:00:00,93,39.36,-9.38,48.2,10.29
Verkhnevilyuysk,0,RU,2018-03-08 05:26:00,58,63.45,120.31,-6.07,3.4
Conceicao do Araguaia,8,BR,2018-03-08 05:26:00,95,-8.26,-49.26,71.83,3.85
Kenai,40,US,2018-03-08 04:56:00,100,60.55,-151.26,21.2,4.52
Maldonado,0,UY,2018-03-08 05:00:00,93,-34.91,-54.96,55.4,3.36
Hit,0,IQ,2018-03-08 05:26:02,41,33.64,42.83,66.61,4.52
Xining,0,CN,2018-03-08 05:26:02,26,36.62,101.77,42.8,4.07
Martapura,64,ID,2018-03-08 05:26:02,84,-3.41,114.85,84.38,8.14
Nichinan,75,JP,2018-03-08 05:00:00,93,31.65,131.31,64.4,8.05
Fallon,1,US,2018-03-08 03:56:00,72,46.84,-105.12,15.8,9.17
Indija,92,LT,2018-03-08 05:26:04,93,55.45,22.23,31.69,9.89
Matamba,24,CD,2018-03-08 05:26:04,87,-5.95,22.27,73.49,3.0
Gusau,0,NG,2018-03-08 05:26:05,53,12.17,6.66,62.69,0.76
Samarkand,12,UZ,2018-03-08 05:00:00,76,39.65,66.98,50.0,9.17
Potam,0,MX,2018-03-08 05:22:55,66,27.6,-110.38,55.99,6.35
Awbari,0,LY,2018-03-08 05:26:06,46,26.59,12.77,53.29,2.89
Kropotkin,48,RU,2018-03-08 05:22:24,95,45.43,40.58,51.8,13.4
Cabedelo,20,BR,2018-03-08 04:00:00,88,-6.97,-34.84,77.0,2.24
Hirara,75,JP,2018-03-08 05:00:00,88,24.8,125.28,64.4,17.22
Yar-Sale,0,RU,2018-03-08 05:26:07,82,66.83,70.83,7.88,13.4
Pemberton,8,AU,2018-03-08 05:26:08,45,-34.44,116.03,84.92,8.14
Santa Ines,75,EC,2018-03-08 04:00:00,81,-0.82,-78.63,53.6,13.87
Brae,88,GB,2018-03-08 04:50:00,87,60.4,-1.35,42.8,18.34
Bahia Honda,88,CU,2018-03-08 05:26:10,95,22.9,-83.16,69.08,6.8
Tiznit,68,MA,2018-03-08 05:26:10,99,29.7,-9.73,60.26,2.89
Dalmau,0,IN,2018-03-08 05:26:10,47,26.08,81.05,82.49,4.41
Rodrigues Alves,0,BR,2018-03-08 04:00:00,88,-7.74,-72.65,75.2,4.7
Alamos,0,AR,2018-03-08 05:26:11,44,-36.9,-62.36,63.28,10.45
Tucurui,64,BR,2018-03-08 05:26:12,97,-3.77,-49.67,73.49,2.33
Boddam,0,GB,2018-03-08 04:50:00,99,57.47,-1.78,35.6,4.7
Atagay,80,RU,2018-03-08 05:26:13,83,55.1,99.39,24.58,5.53
Nyagan,80,RU,2018-03-08 05:26:14,65,62.14,65.43,10.81,9.89
Brenham,1,US,2018-03-08 04:55:00,57,30.17,-96.4,50.0,2.77
Banda Aceh,32,ID,2018-03-08 05:25:03,100,5.56,95.32,80.11,1.32
San Patricio,0,PY,2018-03-08 05:26:15,69,-26.98,-56.83,66.02,4.74
Barcelona,20,ES,2018-03-08 05:00:00,65,41.38,2.18,44.6,9.17
Sombrio,20,BR,2018-03-08 05:26:15,100,-29.11,-49.63,65.89,3.89
Astaneh-ye Ashrafiyeh,90,IR,2018-03-08 05:00:00,100,37.26,49.94,48.2,4.7
Creston,90,US,2018-03-08 05:15:00,68,41.06,-94.36,26.6,13.87
Alcudia,20,ES,2018-03-08 05:00:00,93,39.85,3.12,44.6,2.24
Paamiut,0,GL,2018-03-08 05:26:17,100,61.99,-49.67,22.51,21.9
Muisne,76,EC,2018-03-08 05:26:18,95,0.61,-80.02,73.04,2.51
Luanda,40,AO,2018-03-08 04:00:00,88,-8.83,13.24,75.2,4.7
Sarangani,12,PH,2018-03-08 05:26:19,94,5.4,125.46,84.83,1.5
Svetlogorsk,40,RU,2018-03-08 05:00:00,65,53.14,59.15,6.8,13.42
Sorong,44,ID,2018-03-08 05:26:20,100,-0.86,131.25,82.58,4.79
Labuhan,64,ID,2018-03-08 05:26:20,75,-2.54,115.51,83.44,3.0
Emerald,92,AU,2018-03-08 05:26:21,50,-23.53,148.16,84.74,17.43
Barabai,64,ID,2018-03-08 05:26:21,69,-2.59,115.38,86.59,2.89
Khuzhir,56,RU,2018-03-08 05:26:21,82,53.19,107.35,14.59,4.56
Ongandjera,36,NA,2018-03-08 05:26:22,83,-17.88,15.07,65.03,2.62
Troitskoye,64,RU,2018-03-08 05:26:23,62,52.98,84.68,16.25,14.41
Kearney,1,US,2018-03-08 04:35:00,73,40.7,-99.08,26.6,2.89
Flin Flon,76,CA,2018-03-08 05:26:23,81,54.77,-101.88,14.72,5.64
Safonovo,80,RU,2018-03-08 05:26:24,89,55.11,33.24,21.38,14.47
Fortuna,90,ES,2018-03-08 05:00:00,81,38.18,-1.13,51.8,3.36
Bereda,75,ES,2018-03-08 05:00:00,93,43.27,-7.54,46.4,21.92
Syracuse,90,US,2018-03-08 04:54:00,100,43.05,-76.15,33.8,4.7
Sovetskiy,0,RU,2018-03-08 05:26:25,51,56.76,48.47,-3.87,3.0
Turayf,0,SA,2018-03-08 04:00:00,49,31.68,38.65,46.4,4.7
Fairbanks,1,US,2018-03-08 04:58:00,92,64.84,-147.72,12.2,7.54
Ballina,24,IE,2018-03-08 05:26:26,97,54.11,-9.15,38.08,11.95
Aksarka,20,RU,2018-03-08 05:26:27,79,66.56,67.8,10.49,11.45
Rome,0,IT,2018-03-08 04:55:00,86,41.89,12.48,44.6,5.82
Yokadouma,80,CM,2018-03-08 05:26:28,96,3.52,15.05,69.94,3.62
Wichita Falls,1,US,2018-03-08 04:55:00,60,33.91,-98.49,42.8,3.36
Mecca,0,SA,2018-03-08 04:00:00,73,21.43,39.83,77.0,3.78
Stephenville,1,US,2018-03-08 04:55:00,45,32.22,-98.2,48.2,9.1
Kalabo,12,ZM,2018-03-08 05:26:30,67,-15.0,22.67,73.81,2.77
